{"objectIdFieldName":"OBJECTID","globalIdFieldName":"GLOBALID","geometryType":"esriGeometryPoint","spatialReference":{"wkid":4326,"latestWkid":4326},"fields":[{"name":"PROVIDER","alias":"Provider","type":"esriFieldTypeString","length":255},{"name":"PROGRAM_NAME","alias":"Program Name","type":"esriFieldTypeString","length":150},{"name":"TYPE","alias":"TYPE","type":"esriFieldTypeString","length":150},{"name":"ADDRESS","alias":"ADDRESS","type":"esriFieldTypeString","length":75},{"name":"PHONE_NUM","alias":"PHONE_NUM","type":"esriFieldTypeString","length":200},{"name":"HOURS","alias":"HOURS","type":"esriFieldTypeString","length":250}],"features":[{"attributes":{"PROVIDER":"Martha's Table","PROGRAM_NAME":"Martha's Table","TYPE":"Meal Program","ADDRESS":"629 Princess St","PHONE_NUM":"613-546-0320","HOURS":"Indoor dining available; Mon – Fri: 9 – 11am + 12pm (noon) – 2pm and 3pm – 5pm\u00A0"},"geometry":{"x":-76.501540266504108,"y":44.237100229252441}},{"attributes":{"PROVIDER":"Outreach St. George's Kingston","PROGRAM_NAME":"Lunch by George","TYPE":"Meal Program","ADDRESS":"129 Wellington St","PHONE_NUM":"613-548-4617 ext. 30","HOURS":"Mon - Fri: 9:30am - 10:15am + 11:15am - 12:30pm"},"geometry":{"x":-76.483349231202567,"y":44.229689684124544}},{"attributes":{"PROVIDER":"Kingston Alliance Church","PROGRAM_NAME":"Storehouse of Hope","TYPE":"Clothing","ADDRESS":"540 Palace Rd","PHONE_NUM":"613-546-2143","HOURS":"Mondays from 10:30 a.m. – 1:00 p.m. (excluding statutory holidays)"},"geometry":{"x":-76.514794845778269,"y":44.239957142902433}},{"attributes":{"PROVIDER":"Cataraqui Centre","PROGRAM_NAME":"Cataraqui Centre","TYPE":"Washroom","ADDRESS":"945 Gardiners Rd","PHONE_NUM":null,"HOURS":"Mon-Fri 10am-8pm. Sat 10am-6pm. Sun 11am-5pm"},"geometry":{"x":-76.571276257401792,"y":44.256015802547559}},{"attributes":{"PROVIDER":"City of Kingston","PROGRAM_NAME":"City Hall (Market Wing Washrooms)","TYPE":"Washroom","ADDRESS":"216 Ontario St.","PHONE_NUM":null,"HOURS":"Daily: 7 a.m. - 7 p.m."},"geometry":{"x":-76.480797631675003,"y":44.230071336743407}},{"attributes":{"PROVIDER":"City of Kingston","PROGRAM_NAME":"Housing & Social Services","TYPE":"Washroom","ADDRESS":"362 Montreal St","PHONE_NUM":"613-546-0000","HOURS":"Mon - Fri: 8:30am - 4:30pm"},"geometry":{"x":-76.488058999973958,"y":44.24130018171045}},{"attributes":{"PROVIDER":"Integrated Care Hub","PROGRAM_NAME":"Access + Support Centre","TYPE":"Shower","ADDRESS":"661 Montreal St.","PHONE_NUM":"613-329-6417","HOURS":"Shower access available everyday from 8:30 am - 6:30 p.m."},"geometry":{"x":-76.486097000509929,"y":44.248770181023687}},{"attributes":{"PROVIDER":"Kingston Home Base Housing","PROGRAM_NAME":"One Roof - Youth Services","TYPE":"Shower","ADDRESS":"622 Princess St.","PHONE_NUM":"613-542-6672 ext. 4","HOURS":"Mon - Fri: 10:30am - 2:30pm"},"geometry":{"x":-76.501309038168984,"y":44.236243881253273}},{"attributes":{"PROVIDER":"St. Mary's Cathedral","PROGRAM_NAME":"St. Mary's Drop-In Centre","TYPE":"Shower","ADDRESS":"260 Brock St.","PHONE_NUM":null,"HOURS":"Mon - Fri: 1pm - 3:30pm"},"geometry":{"x":-76.489000304505439,"y":44.231361837586149}},{"attributes":{"PROVIDER":"City of Kingston","PROGRAM_NAME":"Invista Centre Washroom","TYPE":"Washroom","ADDRESS":"1350 Gardiners Rd","PHONE_NUM":null,"HOURS":"Mon - Fri - 6am - 9pm. Sat - 7am-8pm. Sun - 8am-8pm"},"geometry":{"x":-76.568764375402552,"y":44.275232651812964}},{"attributes":{"PROVIDER":"City of Kingston","PROGRAM_NAME":"Kingston East Community Centre","TYPE":"Washroom","ADDRESS":"779 Hwy 15","PHONE_NUM":null,"HOURS":"Mon-Fri 6am-9pm\r\nSat & Sun 8am-8pm"},"geometry":{"x":-76.458949978537106,"y":44.254556972284618}},{"attributes":{"PROVIDER":"Integrated Care Hub","PROGRAM_NAME":"Access + Support Centre","TYPE":"Meal Program","ADDRESS":"661 Montreal St.","PHONE_NUM":"613-329-6417","HOURS":"7 days per week 8:30 a.m. – 6:30 p.m."},"geometry":{"x":-76.486097000509929,"y":44.248770181023687}},{"attributes":{"PROVIDER":"Lion Hearts Inc.","PROGRAM_NAME":"Adelaide St. Shelter","TYPE":"Meal Program","ADDRESS":"38 Cowdy St.","PHONE_NUM":"613-483-8580","HOURS":"7 days per week 10 a.m. – 9:00 p.m.\u00A0"},"geometry":{"x":-76.492224742704394,"y":44.240732749301635}},{"attributes":{"PROVIDER":"Home Base Housing","PROGRAM_NAME":"One Roof - Youth Services","TYPE":"Washroom","ADDRESS":"620 Princess St.","PHONE_NUM":"613-542-6672 ext. 4","HOURS":"Mon - Fri 10:30 a.m. – 3:30p.m.\u00A0\u00A0"},"geometry":{"x":-76.501309038168984,"y":44.236243881253273}},{"attributes":{"PROVIDER":"St. Mary's Cathedral","PROGRAM_NAME":"St. Mary's Drop-In Centre","TYPE":"Washroom","ADDRESS":"260 Brock St.","PHONE_NUM":null,"HOURS":"Mon - Fri: 1pm-3:30pm"},"geometry":{"x":-76.489000304505439,"y":44.231361837586149}},{"attributes":{"PROVIDER":"Kingston Peer Support Centre","PROGRAM_NAME":"Peers of the Round Table","TYPE":"Drop-In Centre","ADDRESS":"60 Queen St.","PHONE_NUM":null,"HOURS":"Mon - Sat 9 a.m. – 3 p.m."},"geometry":{"x":-76.481821037101227,"y":44.232244818021506}},{"attributes":{"PROVIDER":"Kingston Community Health Centres (KCHC)","PROGRAM_NAME":"Street Health","TYPE":"Health Service","ADDRESS":"115 Barrack St.","PHONE_NUM":"613-549-1440","HOURS":"Mon - Fri: 9:00 a.m. - 4:00 p.m. (closed noon - 1 p.m.) and Sat-Sun 9:00 a.m. - Noon"},"geometry":{"x":-76.48313023589688,"y":44.233727101592166}},{"attributes":{"PROVIDER":"Kingston Community Health Centres (KCHC)","PROGRAM_NAME":"Consumption Treatment Service (CTS)","TYPE":"Health Service","ADDRESS":"661 Montreal St.","PHONE_NUM":"613-329-6417","HOURS":"7 days week 9 a.m. - 8 p.m."},"geometry":{"x":-76.486097000509929,"y":44.248770181023687}},{"attributes":{"PROVIDER":null,"PROGRAM_NAME":"Hep C Popup Testing Clinic","TYPE":"Health Service","ADDRESS":"Various Locations","PHONE_NUM":"613-549-1440","HOURS":null}},{"attributes":{"PROVIDER":"Kingston Community Health Centres (KCHC)","PROGRAM_NAME":"Weller Clinic","TYPE":"Health Service","ADDRESS":"263 Weller Ave.","PHONE_NUM":"613-542-2949","HOURS":"Mon - Fri: 9:00 a.m. - 4:00 p.m. (closed noon - 1 p.m.)"},"geometry":{"x":-76.491756629009828,"y":44.26261655315021}},{"attributes":{"PROVIDER":"Integrated Care Hub","PROGRAM_NAME":"Access + Support Centre","TYPE":"Washroom","ADDRESS":"661 Montreal St.","PHONE_NUM":null,"HOURS":"7 days per week 8:30 a.m. – 6:30 p.m."},"geometry":{"x":-76.486097000509929,"y":44.248770181023687}},{"attributes":{"PROVIDER":"Lion Hearts Inc.","PROGRAM_NAME":"Adelaide St. Shelter","TYPE":"Washroom","ADDRESS":"38 Cowdy St.","PHONE_NUM":"613-483-8580","HOURS":"Daily: 10am - 9pm"},"geometry":{"x":-76.492224742704394,"y":44.240732749301635}},{"attributes":{"PROVIDER":"Home Base Housing","PROGRAM_NAME":"One Roof - Youth Services","TYPE":"Meal Program","ADDRESS":"620 Princess St.","PHONE_NUM":"613-542-6672 ext. 4","HOURS":"Mon - Fri: 10:30am - 3:30pm"},"geometry":{"x":-76.501309038168984,"y":44.236243881253273}},{"attributes":{"PROVIDER":"St. Mary's Cathedral","PROGRAM_NAME":"St. Mary's Drop-In Centre","TYPE":"Meal Program","ADDRESS":"260 Brock St.","PHONE_NUM":null,"HOURS":"Mon - Fri: 1pm-3:30pm"},"geometry":{"x":-76.489000304505439,"y":44.231361837586149}},{"attributes":{"PROVIDER":"Kingston Peer Support Centre","PROGRAM_NAME":"Peers of the Round Table","TYPE":"Meal Program","ADDRESS":"60 Queen St.","PHONE_NUM":"613-549-4964","HOURS":"Mon - Sat 10:00 a.m. – 3:00 p.m."},"geometry":{"x":-76.481821037101227,"y":44.232244818021506}},{"attributes":{"PROVIDER":"Integrated Care Hub","PROGRAM_NAME":"Access + Support Centre","TYPE":"Drop-In Centre","ADDRESS":"661 Montreal St.","PHONE_NUM":"613-329-6417","HOURS":"7 days per week 8:30 a.m. – 6:30 p.m."},"geometry":{"x":-76.486097000509929,"y":44.248770181023687}},{"attributes":{"PROVIDER":"Lion Hearts Inc.","PROGRAM_NAME":"Adelaide St. Shelter","TYPE":"Drop-In Centre","ADDRESS":"38 Cowdy St.","PHONE_NUM":"613-483-8580","HOURS":"Daily: 10am - 9pm"},"geometry":{"x":-76.492224742704394,"y":44.240732749301635}},{"attributes":{"PROVIDER":"Home Base Housing","PROGRAM_NAME":"One Roof - Youth Services","TYPE":"Drop-In Centre","ADDRESS":"622 Princess St.","PHONE_NUM":"613-542-6672 ext. 4","HOURS":"Mon - Fri: 10:30am - 3:30pm"},"geometry":{"x":-76.501309038168984,"y":44.236243881253273}},{"attributes":{"PROVIDER":"St. Mary's Cathedral","PROGRAM_NAME":"St. Mary's Drop-In Centre","TYPE":"Drop-In Centre","ADDRESS":"260 Brock St.","PHONE_NUM":null,"HOURS":"Mon - Fri: 1pm-3:30pm"},"geometry":{"x":-76.489000304505439,"y":44.231361837586149}},{"attributes":{"PROVIDER":"City of Kingston","PROGRAM_NAME":"INVISTA Centre","TYPE":"Warm Up / Cool Down Location","ADDRESS":"1350 Gardiners Rd.","PHONE_NUM":"613-546-0000","HOURS":"Mon - Fri:  6 a.m. - 9 p.m.\nSat: 7 a.m. - 8 p.m.\nSun: 8 a.m. - 8 p.m."},"geometry":{"x":-76.568764375402552,"y":44.275232651812964}},{"attributes":{"PROVIDER":"Kingston Frontenac Public Library","PROGRAM_NAME":"Calvin Park Library Branch","TYPE":"Warm Up / Cool Down Location","ADDRESS":"88 Wright Cres.","PHONE_NUM":null,"HOURS":"Mon - Thurs: 9 a.m. – 8 p.m.                 \nFri - Sat: 9 a.m. – 5 p.m.\u00A0"},"geometry":{"x":-76.517725868068737,"y":44.238725563198599}},{"attributes":{"PROVIDER":"Kingston Frontenac Public Library","PROGRAM_NAME":"Central Library Branch","TYPE":"Warm Up / Cool Down Location","ADDRESS":"130 Johnson St.","PHONE_NUM":"613-549-8888","HOURS":"Mon - Thurs : 9 a.m - 8 p.m. Fri - Sat : 9 a.m. - 5 p.m. Sun : 1 p.m. - 5 p.m."},"geometry":{"x":-76.484963384803606,"y":44.229790586630934}},{"attributes":{"PROVIDER":"City of Kingston","PROGRAM_NAME":"Kingston East Community Centre","TYPE":"Warm Up / Cool Down Location","ADDRESS":"779 Hwy 15","PHONE_NUM":null,"HOURS":"Mon-Fri: 6am - 9pm Sat & Sun: 8am - 8pm"},"geometry":{"x":-76.458949978537106,"y":44.254556972284618}},{"attributes":{"PROVIDER":"Kingston Frontenac Public Library","PROGRAM_NAME":"Pittsburgh Library Branch","TYPE":"Warm Up / Cool Down Location","ADDRESS":"80 Gore Rd.","PHONE_NUM":"613-549-8888","HOURS":"Mon: 9 a.m. - 1 p.m. Tues: 12 p.m. - 8 p.m. Wed: 10 a.m. - 6 p.m. Thurs: 12 p.m. - 8 p.m. Fri: 1 p.m. - 5 p.m. Sat: 9 a.m. - 5 p.m."},"geometry":{"x":-76.461199456148819,"y":44.259588321258157}},{"attributes":{"PROVIDER":"Kingston Frontenac Public Library","PROGRAM_NAME":"Rideau Heights Library Branch","TYPE":"Warm Up / Cool Down Location","ADDRESS":"85 MacCauley St.","PHONE_NUM":"613-549-8888","HOURS":"Mon : 10 a.m. - 8 p.m. Tues : 10 a.m. - 2 p.m. Wed : 10 a.m. - 8 p.m. Thurs: 10 a.m. - 2 p.m. Fri, Sat: 9 a.m. - 5 p.m."},"geometry":{"x":-76.482636075949827,"y":44.265231287694306}},{"attributes":{"PROVIDER":"City of Kingston","PROGRAM_NAME":"Housing & Social Services","TYPE":"Warm Up / Cool Down Location","ADDRESS":"362 Montreal St","PHONE_NUM":"613-546-0000","HOURS":"Mon -Fri: 8:30am - 4:30pm"},"geometry":{"x":-76.488058999973958,"y":44.24130018171045}},{"attributes":{"PROVIDER":"St. Mary's Cathedral","PROGRAM_NAME":"St. Mary's Drop-In Centre","TYPE":"Clothing","ADDRESS":"260 Brock St.","PHONE_NUM":null,"HOURS":"Mon - Fri: 1pm - 3:30pm"},"geometry":{"x":-76.48899948536517,"y":44.231351997120157}},{"attributes":{"PROVIDER":"Dawn House","PROGRAM_NAME":"Dawn House Shelter for Women","TYPE":"Emergency Shelter","ADDRESS":"2320 Princess St.","PHONE_NUM":"613-929-3440","HOURS":"7 days per week, 24 hours"},"geometry":{"x":-76.548727728658932,"y":44.2586198508601}},{"attributes":{"PROVIDER":"Home Base Housing","PROGRAM_NAME":"One Roof - Youth Services","TYPE":"Clothing","ADDRESS":"620 Princess St.","PHONE_NUM":"613-542-6672 ext. 4","HOURS":"Mon - Fri: 10:30am - 3:30pm"},"geometry":{"x":-76.501309500418714,"y":44.236253539049365}},{"attributes":{"PROVIDER":"St. Mary's Cathedral","PROGRAM_NAME":"Veronica's Veil","TYPE":"Seasonal Shelter","ADDRESS":"260 Brock St.","PHONE_NUM":null,"HOURS":"January 12, 2026 - April 30, 2026  Daily: 9pm - 8am"},"geometry":{"x":-76.489032342919728,"y":44.231349113611536}},{"attributes":{"PROVIDER":"Lion Hearts Inc.","PROGRAM_NAME":"Adelaide St. Shelter","TYPE":"Clothing","ADDRESS":"38 Cowdy St.","PHONE_NUM":"613-483-8580","HOURS":"Daily: 10am - 9pm"},"geometry":{"x":-76.492224051886694,"y":44.24073276823087}},{"attributes":{"PROVIDER":"Home Base Housing","PROGRAM_NAME":"Housing Help Centre","TYPE":"Clothing","ADDRESS":"540 Montreal St.","PHONE_NUM":"613-542-6672 ext. 1","HOURS":"Mon - Fri: 8:30am - 4pm"},"geometry":{"x":-76.487665910678075,"y":44.245877756347333}},{"attributes":{"PROVIDER":"Lion Hearts Inc.","PROGRAM_NAME":"Adelaide St. Shelter","TYPE":"Emergency Shelter","ADDRESS":"38 Cowdy St.","PHONE_NUM":"613-483-8580","HOURS":"Daily: 9pm - 8:30am"},"geometry":{"x":-76.492224051886694,"y":44.24073276823087}},{"attributes":{"PROVIDER":"Integrated Care Hub","PROGRAM_NAME":"Rest Zone","TYPE":"Emergency Shelter","ADDRESS":"661 Montreal St","PHONE_NUM":"613-329-6417","HOURS":"Daily: 6:30 p.m. - 8:30 a.m."},"geometry":{"x":-76.486096817926281,"y":44.24877516567728}},{"attributes":{"PROVIDER":"Home Base Housing","PROGRAM_NAME":"Lily's Place","TYPE":"Family Shelter","ADDRESS":"333 Kingscourt Ave.","PHONE_NUM":"613-542-6672 ext. 3","HOURS":"7 days per week, 24 hours"},"geometry":{"x":-76.501732500349689,"y":44.252895850674257}},{"attributes":{"PROVIDER":"Home Base Housing","PROGRAM_NAME":"In From The Cold","TYPE":"Emergency Shelter","ADDRESS":"540 Montreal St","PHONE_NUM":"613-542-6672 ext. 2","HOURS":"7 days per week, 24 hours"},"geometry":{"x":-76.487670000134244,"y":44.245888693985734}},{"attributes":{"PROVIDER":null,"PROGRAM_NAME":"Kingston Youth Shelter","TYPE":"Youth Shelter","ADDRESS":"365 Nelson St.","PHONE_NUM":"613-549-4236","HOURS":"7 days per week, 24 hours"},"geometry":{"x":-76.501931170120784,"y":44.241794527872081}},{"attributes":{"PROVIDER":"Integrated Care Hub","PROGRAM_NAME":"Access + Support Centre","TYPE":"Clothing","ADDRESS":"661 Montreal St","PHONE_NUM":"613-329-6417","HOURS":"Daily: 8:30 a.m. - 6:30 p.m."},"geometry":{"x":-76.48611559353121,"y":44.248779008745025}},{"attributes":{"PROVIDER":"Kingston Alliance Church","PROGRAM_NAME":"Storehouse of Hope","TYPE":"Drop-In Centre","ADDRESS":null,"PHONE_NUM":null,"HOURS":"Mondays: 10:30am - 1pm (excluding statutory holidays)"},"geometry":{"x":-76.514790282017984,"y":44.23995849897031}},{"attributes":{"PROVIDER":null,"PROGRAM_NAME":"Partners in Mission Foodbank","TYPE":"Food Bank","ADDRESS":"4 Harvey St.","PHONE_NUM":"613-544-4100","HOURS":"\"Mon - Thurs: 8:30am - 4:30pm (closed 12pm - 1pm) Fri: 8:30am - 4pm (closed 12pm - 1pm)\""},"geometry":{"x":-76.493835863796278,"y":44.252145008571617}},{"attributes":{"PROVIDER":"The Salvation Army Community Services","PROGRAM_NAME":"Community Choice Pantry","TYPE":"Food Bank","ADDRESS":"342 Patrick St.","PHONE_NUM":"613-548-4411","HOURS":"Mon - Tues: 8:30am - 4:30pm Wed: 1pm - 4:30pm Thurs - Fri: 8:30am - 4:30pm"},"geometry":{"x":-76.491177791263951,"y":44.24568066264316}},{"attributes":{"PROVIDER":"Kingston Community Health Centres (KCHC)","PROGRAM_NAME":"Immigrant Services Kingston and Area (ISKA)","TYPE":"Housing Services","ADDRESS":"Unit 201 - 837 Princess St.","PHONE_NUM":"613-544-4661","HOURS":"Mon - Fri: 8:30 am - 4:30pm"},"geometry":{"x":-76.508798523261049,"y":44.240051936520786}},{"attributes":{"PROVIDER":"Downtown Business Improvement Area (DBIA)","PROGRAM_NAME":"Welcoming Streets","TYPE":"Street Outreach","ADDRESS":"353 King St. E, Suite 200","PHONE_NUM":"613-583-5008","HOURS":"Daily: 9am - 5pm"},"geometry":{"x":-76.480836229398605,"y":44.231076008076627}},{"attributes":{"PROVIDER":"Cataraqui Centre","PROGRAM_NAME":"Cataraqui Centre","TYPE":"Warm Up / Cool Down Location","ADDRESS":"945 Gardiners Rd","PHONE_NUM":null,"HOURS":"\"Mon-Fri: 10am - 8pm Sat: 10am - 6pm Sun: 11am - 5pm\""},"geometry":{"x":-76.571282665125992,"y":44.256019012191679}},{"attributes":{"PROVIDER":"Home Base Housing","PROGRAM_NAME":"Housing Help Centre","TYPE":"Housing Services","ADDRESS":"540 Montreal St.","PHONE_NUM":"613-542-6672 ext. 1","HOURS":"Mon - Fri: 8:30 am - 4pm"},"geometry":{"x":-76.487669999709581,"y":44.245884851495518}},{"attributes":{"PROVIDER":"The Salvation Army Community Services","PROGRAM_NAME":"Housing Resource Centre","TYPE":"Housing Services","ADDRESS":"342 Patrick St.","PHONE_NUM":"613 548-4411","HOURS":"Mon - Fri: 8:30 am - 4:30pm"},"geometry":{"x":-76.491172965038416,"y":44.24569655299338}},{"attributes":{"PROVIDER":"St. Vincent de Paul Society of Kingston","PROGRAM_NAME":"Loretta Hospitality & Meal Program","TYPE":"Meal Program","ADDRESS":"595 Bagot St.","PHONE_NUM":"613-766-8432","HOURS":"Mon - Fri: 9 a.m. - 1 p.m."},"geometry":{"x":-76.485044881178169,"y":44.240169153293401}},{"attributes":{"PROVIDER":"Home Base Housing","PROGRAM_NAME":"Street Outreach Team","TYPE":"Street Outreach","ADDRESS":"540 Montreal St.","PHONE_NUM":"613-542-6672 ext. 130","HOURS":"\"Mon – Fri: 8:30am - 10pm. Sat – Sun: 8:30am - 6pm"},"geometry":{"x":-76.487671338245988,"y":44.245882602207502}},{"attributes":{"PROVIDER":"Addiction and Mental Health Services (AMHS)","PROGRAM_NAME":"Street Outreach Case Management","TYPE":"Street Outreach","ADDRESS":"661 Montreal St.","PHONE_NUM":"613-544-1356","HOURS":"Mon - Fri: 8am - 4pm"},"geometry":{"x":-76.486147506836389,"y":44.248781211562736}},{"attributes":{"PROVIDER":"The Salvation Army Community Services","PROGRAM_NAME":"Community Services","TYPE":"Shower","ADDRESS":"342 Patrick St","PHONE_NUM":null,"HOURS":"Mon - Fri: 8am - 4pm Shower by appointment only, sign up at Adelaide St. Shelter located at 38 Cowdy St."},"geometry":{"x":-76.491196958190599,"y":44.245706065640434}},{"attributes":{"PROVIDER":null,"PROGRAM_NAME":"Kingston Interval House","TYPE":"Emergency Shelter","ADDRESS":null,"PHONE_NUM":"613-546-1777 or 1-800-267-9445","HOURS":"7 days per week, 24 hours"}},{"attributes":{"PROVIDER":"Change Health Care Inc","PROGRAM_NAME":"Change Health Care","TYPE":"Health Service","ADDRESS":"7 Hickson Ave.","PHONE_NUM":"613-549-6060","HOURS":"Mon - Fri: 6:30 a.m. - 4 p.m. Sat: 8 a.m. - 12 p.m. Sun: 9 a.m. - 12 p.m."},"geometry":{"x":-76.485034993037019,"y":44.253230561044077}},{"attributes":{"PROVIDER":"Kingston Alliance Church","PROGRAM_NAME":"Storehouse of Hope","TYPE":"Meal Program","ADDRESS":"540 Palace Rd.","PHONE_NUM":null,"HOURS":"Monday's: 11:30 a.m. - 1 p.m."},"geometry":{"x":-76.514775997251505,"y":44.239967256625867}}]}